City_ID,City,Country,Max Temp,Current Description,Lat,Lng,Hotel Name
0,Rikitea,PF,76.73,few clouds,-23.1203,-134.9692,People ThankYou
2,Castro,BR,75.43,overcast clouds,-24.7911,-50.0119,CHACARA BAILLY
4,Hermanus,ZA,63.55,broken clouds,-34.4187,19.2345,Misty Waves Boutique Hotel
7,Sao Filipe,CV,76.8,overcast clouds,14.8961,-24.4956,Hotel Xaguate
9,Meulaboh,ID,74.34,moderate rain,4.1363,96.1285,Kost Pria
10,Goianira,BR,80.42,broken clouds,-16.4961,-49.4264,Estância Palmeiras
11,Lages,BR,71.51,overcast clouds,-27.8161,-50.3261,"Le CanarD Lages - Hotel em Lages, Excelente Localização, Lazer ou Trabalho"
12,Busselton,AU,61.63,scattered clouds,-33.65,115.3333,Observatory Guest House
14,Saint George,US,77.47,clear sky,37.1041,-113.5841,Best Western Plus Abbey Inn
15,Vila Velha,BR,76.95,broken clouds,-20.3297,-40.2925,Quality Suites Vila Velha
17,Lompoc,US,82.71,clear sky,34.6391,-120.4579,"Holiday Inn Express Lompoc, an IHG Hotel"
21,Vaini,TO,80.76,few clouds,-21.2,-175.2,Keleti Beach Resort
23,Hilo,US,77.47,few clouds,19.7297,-155.09,Hilo Hawaiian Hotel
24,Noumea,NC,82.38,broken clouds,-22.2763,166.4572,Hôtel Le Lagon
26,Sao Lourenco Do Oeste,BR,67.6,light rain,-26.3592,-52.8511,Poente Hotel
30,Gariadhar,IN,73.81,broken clouds,21.5333,71.5833,Circuit House
32,Tantoyuca,MX,70.41,overcast clouds,21.35,-98.2333,HOTEL VICTORIA
33,Kapaa,US,78.78,clear sky,22.0752,-159.319,Sheraton Kauai Coconut Beach Resort
35,Bengkulu,ID,75.85,overcast clouds,-3.8004,102.2655,Grage Hotel Bengkulu
38,Riyadh,SA,63.43,clear sky,24.6877,46.7219,"InterContinental Riyadh, an IHG Hotel"
39,Bredasdorp,ZA,62.89,few clouds,-34.5322,20.0403,Bredasdorp Country Manor
40,Itacare,BR,76.21,overcast clouds,-14.2775,-38.9967,Ecoporan Hotel Charme Spa & Eventos
42,Sur,OM,73.51,clear sky,22.5667,59.5289,Sur Plaza Hotel
43,Hithadhoo,MV,81.37,broken clouds,-0.6,73.0833,Scoop Guest House
44,Gualaquiza,EC,78.19,broken clouds,-3.4,-78.55,Hotel Merceditas
47,Phirangipuram,IN,70.54,overcast clouds,16.3,80.2667,Carmel Girls Hostel(Universal College Of Engineering And Technology Hostel)
49,Pangkalanbuun,ID,70.61,overcast clouds,-2.6833,111.6167,Grand Kecubung Hotel
52,Mar Del Plata,AR,63.27,overcast clouds,-38.0023,-57.5575,Gran Hotel Mar del Plata
53,Port Victoria,KE,71.38,moderate rain,0.0939,33.9756,Homepark motel
57,Cabo San Lucas,MX,74.5,overcast clouds,22.8909,-109.9124,Hotel Tesoro Los Cabos
59,Namatanai,PG,81.16,light rain,-3.6667,152.4333,Seagulls Inn Namatani
62,Buraydah,SA,60.93,clear sky,26.326,43.975,فندق راحة السلام
63,Atar,MR,65.23,clear sky,20.5169,-13.0499,Oumou Elghoura
64,Portobelo,PA,82.81,overcast clouds,9.55,-79.65,Scuba Portobelo
67,Baiao,BR,82.31,overcast clouds,-2.7906,-49.6717,Hotel Eurosono
71,East London,ZA,69.12,scattered clouds,-33.0153,27.9116,Tu Casa
74,Kavieng,PG,81.84,moderate rain,-2.5744,150.7967,Nusa Island Retreat
76,Mahebourg,MU,76.23,clear sky,-20.4081,57.7,Shandrani Beachcomber Resort & Spa
77,Iranshahr,IR,66.87,clear sky,27.2025,60.6848,نیک سرشت
78,Saldanha,ZA,63.01,scattered clouds,-33.0117,17.9442,Blue Bay Lodge
79,Alexandria,EG,71.65,overcast clouds,31.2156,29.9553,Royal Crown Hotel
81,Chuy,UY,66.07,moderate rain,-33.6971,-53.4616,Nuevo Hotel Plaza
82,Tabou,CI,79.34,scattered clouds,4.423,-7.3528,hotêl doufoulougou
84,Palu,ID,75.16,overcast clouds,-0.8917,119.8707,Hotel Santika Palu
85,Rosetta,EG,71.06,overcast clouds,31.4044,30.4164,Green Valley
87,Nuevo Progreso,MX,71.11,overcast clouds,23.1667,-97.95,Balneario Rio el Paraiso
90,Hobbs,US,61.39,clear sky,32.7026,-103.136,Best Western Executive Inn
91,Port Elizabeth,ZA,66.49,clear sky,-33.918,25.5701,39 On Nile Guest House
92,Yenagoa,NG,77.16,overcast clouds,4.9247,6.2642,Aridolf Resort Wellness and Spa
94,Liku,ID,74.52,light rain,-0.7275,119.8922,Wahyu
97,Kruisfontein,ZA,63.09,clear sky,-34.0033,24.7314,Oyster Bay House Rental
99,Braganca,BR,80.47,overcast clouds,-1.0536,-46.7656,Marujo's Suíte Hotel
102,Koumac,NC,81.52,scattered clouds,-20.5667,164.2833,Le Monitel
103,Port Alfred,ZA,66.2,clear sky,-33.5906,26.891,The Halyards Hotel
106,Lagoa,PT,60.39,broken clouds,39.05,-27.9833,Casa Das Faias
109,Santa Maria,BR,71.96,overcast clouds,-29.6842,-53.8069,Hotel Morotin
112,Coquimbo,CL,64.13,clear sky,-29.9533,-71.3436,Punto de encuentro
119,Puerto Ayora,EC,70.66,overcast clouds,-0.7393,-90.3518,Finch Bay Galapagos Hotel
127,Impfondo,CG,75.24,broken clouds,1.6381,18.0667,Auberge La Place de Jules
128,Avarua,CK,80.65,broken clouds,-21.2078,-159.775,Paradise Inn
130,Necochea,AR,63.57,overcast clouds,-38.5473,-58.7368,dyd -mar Hotel
132,Atuona,PF,78.53,clear sky,-9.8,-139.0333,Villa Enata
133,Bambous Virieux,MU,76.24,clear sky,-20.3428,57.7575,Casa Tia Villa
134,Pathein,MM,72.5,overcast clouds,16.7833,94.7333,New Pammawaddy Hotel
136,Ribeira Grande,PT,61.2,few clouds,38.5167,-28.7,Quinta da Meia Eira
137,Cidreira,BR,72.3,overcast clouds,-30.1811,-50.2056,Hotel Castelo
138,Upington,ZA,69.69,clear sky,-28.4478,21.2561,River Place Manor
143,Vao,NC,75.92,few clouds,-22.6667,167.4833,Hotel Kou-Bugny
144,Port-Gentil,GA,80.58,light rain,-0.7193,8.7815,Fengshui Residence
147,Butaritari,KI,81.61,overcast clouds,3.0707,172.7902,Isles Sunset Lodge
148,Comodoro Rivadavia,AR,73.26,clear sky,-45.8667,-67.5,Austral Hotel
149,Cape Town,ZA,63.01,scattered clouds,-33.9258,18.4232,Southern Sun Waterfront Cape Town
150,Ambon,ID,81.45,overcast clouds,-3.6954,128.1814,Swiss-Belhotel Ambon
154,Ponta Do Sol,PT,65.03,broken clouds,32.6667,-17.1,Hotel do Campo
159,Cairns,AU,76.95,light intensity shower rain,-16.9167,145.7667,Mantra Trilogy Cairns
160,Thanh Hoa,VN,65.91,overcast clouds,19.8,105.7667,KHÁCH SẠN NGỌC LY 8
162,Saint-Philippe,RE,74.79,scattered clouds,-21.3585,55.7679,"Chambres d'hôte ""La Trinité"""
165,Georgetown,MY,76.93,few clouds,5.4112,100.3354,Cititel Penang
169,Sao Joao Da Barra,BR,73.49,overcast clouds,-21.6403,-41.0511,Pousada Porto De Canoas
170,Carnarvon,AU,74.64,clear sky,-24.8667,113.6333,Hospitality Carnarvon
172,Touros,BR,83.3,broken clouds,-5.1989,-35.4608,INN NEW HORIZON
174,Nelson Bay,AU,62.65,overcast clouds,-32.7167,152.15,Mantra Nelson Bay
175,Naze,JP,63.79,overcast clouds,28.3667,129.4833,Shishime Hotel
176,Belmonte,BR,79.3,scattered clouds,-15.8631,-38.8828,Pousada Monte Carmelo O Pão
181,La Trinitaria,MX,72.3,overcast clouds,16.1167,-92.05,Hotel Trinitaria
182,Pisco,PE,69.85,clear sky,-13.7,-76.2167,Hotel San Isidro Oficial
188,Vanimo,PG,77.32,overcast clouds,-2.6741,141.3028,Vahmoneh Lodge Vanimo
189,Hualmay,PE,70.07,broken clouds,-11.0964,-77.6139,Hotel Villa Kitzia Huacho
192,Sinnamary,GF,80.1,few clouds,5.3833,-52.95,ALETHEIA Appartement Sinnamary
194,San Andres,CO,80.62,broken clouds,12.5847,-81.7006,Hotel Arena Blanca
195,Bundaberg,AU,73.69,overcast clouds,-24.85,152.35,Takalvan Motel
196,Vung Tau,VN,77.2,heavy intensity rain,10.346,107.0843,Green hotel
197,Maragogi,BR,80.35,scattered clouds,-9.0122,-35.2225,Salinas do Maragogi All Inclusive Resort
198,Quatre Cocos,MU,76.06,clear sky,-20.2078,57.7625,Sunrise Attitude Hotel
200,Rio Grande,BR,75.31,light rain,-32.035,-52.0986,Hotel Atlântico Rio Grande
202,Poum,NC,79.75,scattered clouds,-20.2333,164.0167,Gîte kajeon
203,Sambava,MG,76.6,light rain,-14.2667,50.1667,Melrose
206,Porto Santo,PT,64.31,scattered clouds,33.072,-16.3415,Hotel Porto Santo & Spa
210,Arraial Do Cabo,BR,76.86,scattered clouds,-22.9661,-42.0278,Pousada Porto Praia
213,Acayucan,MX,74.14,overcast clouds,17.95,-94.9167,Hotel Arcos Del Parque
215,Waipawa,NZ,63.23,broken clouds,-41.4122,175.5153,Tora Coastal Walk
216,Taltal,CL,65.21,scattered clouds,-25.4,-70.4833,Residencial Karime
217,Abu Dhabi,AE,77.4,clear sky,24.4667,54.3667,Ramee Garden Hotel Apartments
220,Waddan,LY,77.88,overcast clouds,29.1614,16.139,محل الشريف محمد العايب
221,Sibolga,ID,74.35,overcast clouds,1.7427,98.7792,Hotel Syariah CN Darussalam
223,Altamira,BR,83.23,overcast clouds,-3.2033,-52.2064,Requinte Hotel
224,Samarai,PG,82.06,overcast clouds,-10.6167,150.6667,Nuli Sapi
225,Wamba,NG,75.7,broken clouds,8.9333,8.6,Roma Zee Guest House Annex
228,Truth Or Consequences,US,64.63,clear sky,33.1284,-107.2528,Charles Motel
229,Kattivakkam,IN,77.09,overcast clouds,13.2167,80.3167,Euronova Freezer
230,Puerto Leguizamo,CO,79.66,overcast clouds,-0.1934,-74.7819,la casona de juancho
231,Barstow,US,74.75,clear sky,34.8986,-117.0228,"Motel 6 Barstow, CA"
233,Do Gonbadan,IR,60.1,broken clouds,30.3586,50.7981,شبکه بهداشت و درمان گچساران
234,Chulumani,BO,71.01,overcast clouds,-16.4096,-67.5263,Hotel Cabanas Paradise
235,Jacqueville,CI,78.71,scattered clouds,5.2052,-4.4146,Hotel Le Martin Pecheur
236,Golden,US,67.69,broken clouds,39.7555,-105.2211,"The Golden Hotel, Ascend Hotel Collection"
237,Esperance,AU,64.24,overcast clouds,-33.8667,121.9,Hospitality Esperance
238,Lima,PE,66.45,scattered clouds,-12.0432,-77.0282,Gran Hotel Bolivar Lima
245,Poso,ID,75.92,overcast clouds,-1.3959,120.7524,Hotel 77 Poso
249,Matay,EG,73.81,broken clouds,28.419,30.7792,Nag Aespen
250,Geraldton,AU,66.61,broken clouds,-28.7667,114.6,Broadwater Mariner Resort
251,Teacapan,MX,79.5,overcast clouds,22.55,-105.75,Hotel los Mangos
252,Patacamaya,BO,60.53,light rain,-17.2333,-67.9167,RESIDENCIAL ISLA VIGU
253,Manadhoo,MV,80.55,heavy intensity rain,5.7667,73.3833,Reason Inn
255,Kabanjahe,ID,61.56,moderate rain,3.1001,98.4908,Kos-Kosan wanita muslim bagoes kabanjahe
256,San Patricio,US,70.21,overcast clouds,28.017,-97.5169,"Motel 6 Sinton, TX"
257,Rio Gallegos,AR,60.33,overcast clouds,-51.6226,-69.2181,Hotel Santa Cruz
258,Half Moon Bay,US,68.18,few clouds,37.4636,-122.4286,"The Ritz-Carlton, Half Moon Bay"
259,Cap Malheureux,MU,77.09,clear sky,-19.9842,57.6142,Pereybere Hotel & Spa
260,Los Llanos De Aridane,ES,64.15,broken clouds,28.6585,-17.9182,Valle Aridane
264,Hervey Bay,AU,73.51,broken clouds,-25.2986,152.8535,Shelly Bay Resort
265,Awbari,LY,72.46,overcast clouds,26.5921,12.7805,فندق أوباري
266,Akcaabat,TR,71.47,broken clouds,41.0212,39.5715,AKOF APART
267,Souillac,MU,75.79,clear sky,-20.5167,57.5167,Shanti Maurice Resort & Spa
268,Constitucion,CL,63.14,clear sky,-35.3333,-72.4167,Hotel Boutique Las Azucenas
270,Kawambwa,ZM,62.74,light rain,-9.7915,29.0791,Chembe Nsofu
275,Portland,US,62.58,clear sky,45.5234,-122.6762,Embassy Suites by Hilton Portland Downtown
277,Guerrero Negro,MX,78.13,clear sky,27.9769,-114.0611,"Casa Laguna, Bed & Breakfast"
279,Bathsheba,BB,80.65,scattered clouds,13.2167,-59.5167,Atlantis Hotel
282,Namibe,AO,69.42,overcast clouds,-15.1961,12.1522,Hotel Chik Chik Namibe
283,Conceicao Da Barra,BR,77.07,scattered clouds,-18.5933,-39.7322,Cricaré Praia Hotel
285,Nishihara,JP,68.05,mist,26.1842,127.7558,Minshuku Agaihama
295,Kondoa,TZ,65.14,broken clouds,-4.9,35.7833,Kinyuma Lodge
297,Harper,LR,79.3,broken clouds,4.375,-7.7169,Screensaver
298,Sijunjung,ID,68.95,overcast clouds,-0.6876,100.9537,Hotel Bukik Gadang
300,General Roca,AR,83.14,clear sky,-39.0333,-67.5833,Hotel y Casino del Río General Roca
301,Cozumel,MX,79.99,overcast clouds,20.5083,-86.9458,Cozumel Palace® All Inclusive Resort
303,Phonhong,LA,65.53,overcast clouds,18.5007,102.4166,Manyvong Guest House
305,Alofi,NU,77.25,broken clouds,-19.0595,-169.9187,Taloa Heights
306,Viedma,AR,74.21,clear sky,-40.8135,-62.9967,Hotel Cristal
312,Mutis,CO,81.1,scattered clouds,6.2262,-77.4044,Paraiso Escondido
313,Japura,ID,72.36,overcast clouds,-0.3167,102.35,Rumah mbah Jamah
314,Takoradi,GH,80.55,overcast clouds,4.8845,-1.7554,Raybow International Hotel
319,Copiapo,CL,62.29,clear sky,-27.3667,-70.3333,San Francisco de La Selva
320,Port Shepstone,ZA,70.93,clear sky,-30.7414,30.455,My Den Beachfront Bed and Breakfast | Self-Catering
321,Umm Lajj,SA,82.24,clear sky,25.0213,37.2685,Moon light Furnished Units
322,Grand Gaube,MU,77.02,clear sky,-20.0064,57.6608,Veranda Paul et Virginie Hotel & Spa
329,Lisala,CD,74.35,overcast clouds,2.15,21.5167,Flat hôtel tozelaka
331,Rusape,ZW,62.1,clear sky,-18.5278,32.1284,Surrey Lodge
332,Ahipara,NZ,68.65,overcast clouds,-35.1667,173.1667,Ahipara Holiday Park
333,Kieta,PG,81.52,overcast clouds,-6.2167,155.6333,Uruna Bay Retreat
337,Chimoio,MZ,61.92,clear sky,-19.1164,33.4833,Predio Livraria Ahmed
338,Labuhan,ID,75.88,light rain,-6.8844,112.2051,PT PPI Lamongan Tambak C
341,Port Blair,IN,79.56,few clouds,11.6667,92.75,"Welcomhotel By ITC Hotels, Bay Island, Port Blair"
344,Houma,US,64.4,clear sky,29.5958,-90.7195,Courtyard by Marriott Houma
345,Boca Do Acre,BR,80.02,overcast clouds,-8.7522,-67.3978,Hotel Sao Pedro
347,Chinhoyi,ZW,68.32,few clouds,-17.3667,30.2,Msasa Guest House Chinhoyi (Wendy Shaw)
348,Bull Savanna,JM,78.15,scattered clouds,17.8868,-77.5902,Big Red's
349,Gondanglegi,ID,75.27,overcast clouds,-7.7479,112.0132,pondok pesantren mamba'ul 'ulum selo rejo
350,Sao Jose Da Coroa Grande,BR,80.44,scattered clouds,-8.8978,-35.1478,Crôa Mares Hotel
352,Caravelas,BR,74.3,broken clouds,-17.7125,-39.2481,Pousada dos Navegantes
353,Mizan Teferi,ET,66.78,overcast clouds,6.9833,35.5833,Hotel Salayish | ሆቴል ሳላይሽ
354,Bhayavadar,IN,72.99,broken clouds,21.85,70.25,Ami pan
356,Cockburn Town,TC,78.26,scattered clouds,21.4612,-71.1419,Osprey Beach Hotel
357,Pitimbu,BR,82.99,broken clouds,-7.4706,-34.8086,Reserva do Abiaí
358,Ranong,TH,75.2,overcast clouds,9.9658,98.6348,Tinidee Hotel@Ranong
359,Tala,EG,67.84,broken clouds,30.6803,30.9429,مصطفى اشرف
360,Port Hedland,AU,73.45,scattered clouds,-20.3167,118.5667,The Esplanade Hotel
362,Fougamou,GA,73.78,light rain,-1.2154,10.5838,Résidence d'Hôtes Bapedy
364,Port Lincoln,AU,61.21,clear sky,-34.7333,135.8667,Port Lincoln Hotel
365,Campos,BR,73.45,broken clouds,-21.75,-41.3,Palace Hotel - Campos dos Goytacazes
366,Saint-Raphael,HT,76.37,scattered clouds,19.4333,-72.2,Adouly Hôtel
368,Nattarasankottai,IN,73.35,light rain,9.8667,78.5667,Vengateshwara lodge
371,Qiryat Shemona,IL,66.56,overcast clouds,33.2073,35.5721,"אכסניית אנ""א תל חי HI Tel Hai Hostel"
372,Banda Aceh,ID,77.36,overcast clouds,5.5577,95.3222,Sulthan Hotel International
374,Nouadhibou,MR,68.11,overcast clouds,20.931,-17.0347,El Medina
377,Dublin,US,67.12,clear sky,37.7021,-121.9358,Pleasanton Marriott
381,Bombay,IN,78.78,smoke,19.0144,72.8479,Hotel Avon Ruby-Dadar
382,Palauig,PH,79.92,broken clouds,15.435,119.9045,Alperi Botique Resort
383,Kanniyakumari,IN,78.13,overcast clouds,8.0833,77.5667,Sparsa
386,Kahului,US,80.62,few clouds,20.8947,-156.47,Maui Seaside Hotel
387,Matam,SN,84.79,clear sky,15.6175,-13.3303,Auberge Beelel Jeeri
390,Castro Alves,BR,72.37,overcast clouds,-12.7656,-39.4283,Hotel e Restaurante do Poeta
391,Neuquen,AR,82.92,clear sky,-38.9516,-68.0591,Hotel del Comahue
393,Isangel,VU,81.21,light rain,-19.55,169.2667,Tanna Lodge
394,Victoria,HK,67.98,scattered clouds,22.2855,114.1577,Mini Hotel Central
395,Harlingen,US,75.38,clear sky,26.1906,-97.6961,Courtyard by Marriott Harlingen
399,The Valley,AI,81.1,few clouds,18.217,-63.0578,CeBlue Villas & Beach Resort
401,Ritchie,ZA,69.73,clear sky,-29.038,24.6028,Riverside Country Club Modderrivier
402,Ballina,AU,68.04,overcast clouds,-28.8667,153.5667,Ramada Hotel & Suites by Wyndham Ballina Byron
406,Mbanza-Ngungu,CD,69.08,light rain,-5.25,14.8667,Hotel Full Business
408,Muisne,EC,78.91,light rain,0.6,-80.0333,Quinta Samay
410,Kavaratti,IN,81.0,overcast clouds,10.5669,72.642,Hotels in Lakshadweep Islands
414,Canico,PT,65.03,scattered clouds,32.6333,-16.85,Quinta Splendida Wellness & Botanical Garden
416,Cukai,MY,75.24,heavy intensity rain,4.25,103.4167,OYO 90038 Dalyla Inn Chalet
417,Kaele,CM,81.52,overcast clouds,10.1092,14.4508,Hôtel Les Palmiers
418,Pedra Azul,BR,69.67,clear sky,-16.0053,-41.2972,Pousada Pedra Azul
420,Manicore,BR,82.74,overcast clouds,-5.8092,-61.3003,Hotel Durval
421,Biak,ID,75.97,overcast clouds,-0.9131,122.8766,Penginapan Kim
422,San Rafael,AR,80.04,clear sky,-34.6177,-68.3301,Hotel San Rafael
423,Luanda,AO,78.8,broken clouds,-8.8368,13.2343,Hotel Fórum
426,Humaita,BR,80.92,light rain,-7.5061,-63.0208,Corrêa Hotel
427,Bac Lieu,VN,74.95,overcast clouds,9.285,105.7244,Khách sạn Sài Gòn Bạc Liêu
430,Flagstaff,US,62.26,clear sky,35.1981,-111.6513,Drury Inn & Suites Flagstaff
433,Marawi,PH,68.07,broken clouds,7.9986,124.2928,Derogongan Residence
434,Dingle,PH,75.07,scattered clouds,10.9995,122.6711,SEGAYA PROPERTY
435,San Policarpo,PH,80.49,overcast clouds,12.1791,125.5072,Agapita M. Nicart
437,Padang,ID,75.94,light rain,-0.9492,100.3543,Mercure Padang
438,San Cristobal,VE,77.18,broken clouds,7.7669,-72.225,Posada Villaven C.A.
440,Richards Bay,ZA,73.22,clear sky,-28.783,32.0377,BON Hotel Waterfront Richards Bay
442,Zhuhai,CN,67.71,clear sky,22.2769,113.5678,Nanyang Seascape Hotel Zhuhai Hotel
443,Pamekasan,ID,76.17,light rain,-7.1568,113.4746,OYO 3027 Griya Temenggungan Syariah
447,Terrell,US,64.96,clear sky,32.736,-96.2753,"Holiday Inn Express & Suites Terrell, an IHG Hotel"
450,Ahuimanu,US,82.11,clear sky,21.4447,-157.8378,Paradise Bay Resort
452,Turbat,PK,68.77,clear sky,26.0023,63.044,Mubashar Quarters
453,Los Chiles,CR,79.11,broken clouds,11.0333,-84.7167,Cabinas y Apartamentos Felicia
454,Palmerston,AU,78.78,few clouds,-12.486,130.9833,Quest Palmerston - Serviced Apartments and Accommodation
456,Bandarbeyla,SO,77.7,scattered clouds,9.4942,50.8122,JABIR HOTEL
457,Hirara,JP,70.38,light rain,24.8,125.2833,Hotel Atoll Emerald Miyakojima
460,Newala,TZ,66.29,few clouds,-10.9431,39.2787,Mnyeu Newala
461,Don Sak,TH,78.91,overcast clouds,9.3168,99.6918,Sea Sun Moon Hostel
464,Nchelenge,ZM,69.98,light rain,-9.3451,28.734,KD Travellers Home
466,Lamar,US,64.31,clear sky,33.6668,-95.5836,Kings Inn Paris TX
467,Abonnema,NG,79.14,overcast clouds,4.7084,6.7931,Corper's Lodge Obonoma
469,Sakakah,SA,62.51,clear sky,29.9697,40.2064,Fakhamat Al Orjoana Apartment
470,Celestun,MX,78.91,overcast clouds,20.8667,-90.4,Posada Lilia
472,Sampit,ID,70.74,overcast clouds,-2.5333,112.95,Aquarius Boutique Hotel Sampit
474,Kununurra,AU,75.18,scattered clouds,-15.7667,128.7333,Hotel Kununurra
476,Chapada Dos Guimaraes,BR,83.86,broken clouds,-15.4606,-55.7497,Pousada Morro Dos Ventos
479,Barra Dos Coqueiros,BR,77.02,broken clouds,-10.9089,-37.0386,Jangadeiro
481,Tuy Hoa,VN,75.06,heavy intensity rain,13.0833,109.3,CenDeluxe Hotel Tuy Hoa
483,Airai,TL,60.44,overcast clouds,-8.9266,125.4092,Juvinal Martin
484,Faanui,PF,81.41,overcast clouds,-16.4833,-151.75,Bora-Bora Pearl Beach Resort & Spa
485,Kuah,MY,76.69,overcast clouds,6.3265,99.8432,Azio Hotel
486,Surt,LY,69.87,broken clouds,31.2089,16.5887,الهادي ابوشعاله سرت
489,Lingao,CN,69.98,broken clouds,19.9103,109.6859,Lingao Ditai Inn
493,Salinopolis,BR,82.09,light rain,-0.6136,-47.3561,Salinas Park Resort Maçarico AP101
498,Safaga,EG,78.4,overcast clouds,26.7292,33.9365,Lamar Resort Abu Soma
499,Neiafu,TO,83.08,few clouds,-18.65,-173.9833,Mystic Sands Beachfront Accommodation
500,Talara,PE,74.16,clear sky,-4.5772,-81.2719,Hostal Oro Negro
504,Veraval,IN,76.35,broken clouds,20.9,70.3667,Lords Inn Somnath
505,Porto Novo,BJ,81.34,overcast clouds,6.4965,2.6036,Tour Eiffel Hotel Benin
507,Mbandaka,CD,73.45,light rain,0.0487,18.2603,Guest House Epervier
511,San Angelo,US,68.22,clear sky,31.4638,-100.437,"Motel 6 San Angelo, TX"
512,Linda,US,71.28,clear sky,39.1277,-121.5508,Comfort Suites Marysville-Yuba City
514,Buluang,PH,75.67,overcast clouds,13.3068,123.3425,Enon Beach Resort
515,Arlit,NE,77.99,few clouds,18.7369,7.3853,Case de Passage De la Prefecture
521,Tukrah,LY,79.88,overcast clouds,32.5341,20.5791,Lagrota restaurant
524,San Quintin,MX,72.54,clear sky,30.4833,-115.95,Don Eddie's Sport Fishing Center
526,Alyangula,AU,82.31,broken clouds,-13.8483,136.4192,Groote Eylandt Lodge
529,Akyab,MM,73.83,broken clouds,20.15,92.9,Hotel Memory
544,Oistins,BB,82.49,scattered clouds,13.0667,-59.5333,Butterfly Beach Hotel
545,Uberlandia,BR,78.46,broken clouds,-18.9186,-48.2772,Hotel Apollo
547,Bubaque,GW,83.39,broken clouds,11.2833,-15.8333,"Casa Dora, Bubaque"
550,Imbituba,BR,73.29,overcast clouds,-28.24,-48.6703,Praia Hotel Imbituba
551,Maues,BR,82.83,overcast clouds,-3.3836,-57.7186,Hotel Miramar
553,Harindanga,IN,66.18,scattered clouds,22.0383,88.3214,Hasanur Builders
556,Cayenne,GF,80.64,scattered clouds,4.9333,-52.3333,Hôtel Le Dronmi
559,Akhmim,EG,73.09,overcast clouds,26.5622,31.745,برج الماسة السكني
560,North Platte,US,60.69,clear sky,41.1239,-100.7654,"Holiday Inn Express & Suites North Platte, an IHG Hotel"
563,Emerald,AU,75.47,overcast clouds,-23.5333,148.1667,The Irish Village
565,Nouakchott,MR,75.13,overcast clouds,18.0858,-15.9785,HOTEL IMAN
567,Port Moresby,PG,78.13,overcast clouds,-9.4431,147.1797,Lamana Hotel (Port Moresby)
568,Domoni,KM,78.62,light rain,-12.2569,44.5319,Al Djadid
569,Plettenberg Bay,ZA,64.67,broken clouds,-34.0527,23.3716,Thanda Vista B&B
571,Marsa Matruh,EG,73.06,overcast clouds,31.3525,27.2453,Beau Site
572,Port Macquarie,AU,64.36,overcast clouds,-31.4333,152.9167,Rydges Port Macquarie
573,Telhara,IN,64.94,broken clouds,21.0269,76.8389,Raj Pan Palace
577,Saint-Pierre,RE,74.88,light rain,-21.3393,55.4781,Lindsey Hôtel
580,San Carlos,VE,84.16,overcast clouds,9.6612,-68.5827,Hotel Paternopoli
582,Santa Fe,AR,75.45,light rain,-31.6333,-60.7,Conquistador Hotel
583,Jeremie,HT,79.32,scattered clouds,18.65,-74.1167,Auberge’Inn
584,Kambove,CD,63.41,scattered clouds,-10.8764,26.5969,Couvant des soeurs catholiques
586,Hilton Head Island,US,60.91,clear sky,32.2163,-80.7526,Disney’s Hilton Head Island Resort
587,Soyo,AO,78.64,overcast clouds,-6.1349,12.3689,Hotel Mpampa
588,Camalu,MX,72.7,clear sky,30.85,-116.0667,La Cueva del Pirata
590,Maunabo,PR,82.24,broken clouds,18.0072,-65.8993,Maunacaribe
591,Bayshore Gardens,US,69.82,few clouds,27.4253,-82.5904,Ramada by Wyndham Sarasota Waterfront
593,Cuyo,PH,82.87,light rain,10.8525,121.0086,FRANCIA INN
594,Kudahuvadhoo,MV,82.74,overcast clouds,2.6708,72.8944,Niyama Private Islands Maldives
602,Farafangana,MG,68.99,overcast clouds,-22.8167,47.8333,Miarina
603,Camacha,PT,61.56,scattered clouds,33.0833,-16.3333,Hotel Porto Santo & Spa
605,Yulara,AU,62.44,clear sky,-25.2406,130.9889,Desert Gardens Hotel - Ayers Rock Resort
607,Sao Domingos,BR,76.5,moderate rain,-13.3983,-46.3183,Hotel e Restaurante Uirapuru (Márcio uirapuru )Em São Domingos -Go
608,Mutoko,ZW,65.35,clear sky,-17.397,32.2268,Mutoko Hotel
609,Sharjah,AE,75.18,clear sky,25.3573,55.4033,Swiss Belhotel Sharjah
611,Itaguai,BR,74.88,broken clouds,-22.8522,-43.7753,It Grande Hotel Itaguai
613,Grand Baie,MU,76.91,clear sky,-20.0182,57.5802,Trou aux Biches Beachcomber Golf Resort & Spa
616,Sambo Creek,HN,82.67,scattered clouds,15.8167,-86.6833,Casa hermana victoriana
621,Bikaner,IN,66.78,clear sky,28.0167,73.3,Karina Guest House
623,Bocaiuva,BR,72.93,scattered clouds,-17.1078,-43.815,Hotel Maxim's
625,Mount Isa,AU,78.57,scattered clouds,-20.7333,139.5,ibis Styles Mt Isa Verona
627,Karratha,AU,80.71,scattered clouds,-20.7377,116.8463,ibis Styles Karratha
628,Kimbe,PG,79.2,overcast clouds,-5.5502,150.1429,Kimbe Bay Hotel
629,Villamontes,BO,71.17,overcast clouds,-21.25,-63.5,Hotel Raldes
630,Kiblawan,PH,74.28,overcast clouds,6.6142,125.2367,manilyn
631,Odweyne,SO,70.57,clear sky,9.4092,45.064,Eng Hiirey House
633,Kapit,MY,71.62,overcast clouds,2.0167,112.9333,Hotel Meligai Kapit
635,Francisco Beltrao,BR,69.39,light rain,-26.0811,-53.055,Cristal Palace Hotel
636,Zemio,CF,77.92,overcast clouds,5.0314,25.1361,OCHA Office
637,Ko Samui,TH,80.65,overcast clouds,9.5357,99.9357,The Passage
642,Gwanda,ZW,73.06,few clouds,-20.9333,29.0,Mafax Homeways
643,Lahaina,US,80.6,clear sky,20.8783,-156.6825,Lahaina Shores Beach Resort
650,Chicama,PE,63.14,overcast clouds,-7.8447,-79.1469,Balihai Bungalows
652,Morondava,MG,73.72,clear sky,-20.2833,44.2833,La Case Bambou
654,Lorengau,PG,80.91,overcast clouds,-2.0226,147.2712,Lorengau Harbourside Hotel
657,Koutsouras,GR,68.54,overcast clouds,35.0339,25.9469,The White Houses
659,Wewak,PG,79.11,overcast clouds,-3.5534,143.6268,In Wewak Boutique Hotel
660,Lucea,JM,79.99,scattered clouds,18.451,-78.1736,Grand Palladium Jamaica Resort & Spa
665,Eyl,SO,77.45,scattered clouds,7.9803,49.8164,Amiin Hotel
666,Ramkola,IN,63.82,broken clouds,26.9042,83.8411,Pankaj Sahani Ramkola
668,Mancora,PE,73.98,broken clouds,-4.1078,-81.0475,Máncora Marina Hotel
672,Pacifica,US,68.0,few clouds,37.6138,-122.4869,"Pacifica Lighthouse, Trademark Collection by Wyndham"
673,Santa Rosa,PH,77.09,overcast clouds,14.3122,121.1114,Erlyn’s Sta Rosa City Home
674,Ulladulla,AU,60.57,overcast clouds,-35.35,150.4667,Sandpiper Motel
675,Byron Bay,AU,71.55,overcast clouds,-28.65,153.6167,Backpackers Inn
676,Mareeba,AU,72.32,scattered clouds,-17.0,145.4333,Trinity Plains Tourist Park
677,Basco,PH,78.31,light rain,20.4487,121.9702,Nathaniel's Lodge
